[
  {
    "name": "Нурликон литий кони",
    "location": "[41.150222,69.909544]",
    "elements": [
      "Li"
    ],
    "region": "Тошкент вилояти, Оҳангарон тумани",
    "coords": "[69.909544,41.150222]",
    "work_persent": 0
  },
  {
    "name": "Сариқули вольфрам кони",
    "location": "[39.455722,65.742989]",
    "elements": [
      "W"
    ],
    "region": "Самарқанд вилояти, Нуробод тумани",
    "coords": "[65.742989,39.455722]",
    "work_persent": 0
  },
  {
    "name": "Сатубой вольфрам кони",
    "location": "[42.095492,62.218347]",
    "elements": [
      "W"
    ],
    "region": "Навоий вилояти, Учқудуқ тумани",
    "coords": "[62.218347,42.095492]",
    "work_persent": 0
  },
  {
    "name": "Тасқазған графит кони",
    "location": "[40.727986,63.470267]",
    "elements": [
      "C"
    ],
    "region": "Бухоро вилояти, Пешку тумани",
    "coords": "[63.470267,40.727986]",
    "work_persent": 0
  },
  {
    "name": "Дайкали истиқболли майдони",
    "location": "[39.470483,64.950053]",
    "elements": [
      "Ti"
    ],
    "region": "Навоий вилояти, Томди тумани",
    "coords": "[64.950053,39.470483]",
    "work_persent": 0
  },
  {
    "name": "Султонбобо истиқболли майдони",
    "location": "[43.178175,60.298253]",
    "elements": [
      "Ni",
      "Co",
      "Cr",
      "Mg"
    ],
    "region": "Қорақалпоғистон Республикаси, Беруний тумани",
    "coords": "[60.298253,43.178175]",
    "work_persent": 0
  },
  {
    "name": "Маданли, Косчека ванадий кони",
    "location": "[41.026558,63.722686]",
    "elements": [
      "V"
    ],
    "region": "Андижон вилояти, Томди тумани",
    "coords": "[63.722686,41.026558]",
    "work_persent": 0
  },
  {
    "name": "Лолабойлар истиқболли майдони",
    "location": "[41.124050,71.929433]",
    "elements": [
      "Ta",
      "Nb",
      "Be"
    ],
    "region": "Наманган вилояти, Чортоқ тумани",
    "coords": "[71.929433,41.124050]",
    "work_persent": 0
  },
  {
    "name": "Мискон мис-порфироли кони",
    "location": "[40.908514,68.893258]",
    "elements": [
      "Cu"
    ],
    "region": "Тошкент вилояти, Пискент тумани",
    "coords": "[68.893258,40.908514]",
    "work_persent": 0
  },
  {
    "name": "Кремний ишлаб чиқариш ташкил этиш жойи",
    "location": "[40.972586,69.748542]",
    "elements": [
      "Si"
    ],
    "region": "Тошкент вилояти, Оҳангарон тумани",
    "coords": "[69.748542,40.972586]",
    "work_persent": 0
  }
]